[{"countryName":"Aland Islands","capitalLatitude":60.116667,"countryCode":"AX","continentName":"Europe","capitalName":"Mariehamn","capitalLongitude":19.9},{"countryName":"Albania","capitalLatitude":41.31666666666667,"countryCode":"AL","continentName":"Europe","capitalName":"Tirana","capitalLongitude":19.816667},{"countryName":"Andorra","capitalLatitude":42.5,"countryCode":"AD","continentName":"Europe","capitalName":"Andorra la Vella","capitalLongitude":1.516667},{"countryName":"Armenia","capitalLatitude":40.166666666666664,"countryCode":"AM","continentName":"Europe","capitalName":"Yerevan","capitalLongitude":44.5},{"countryName":"Austria","capitalLatitude":48.2,"countryCode":"AT","continentName":"Europe","capitalName":"Vienna","capitalLongitude":16.366667},{"countryName":"Azerbaijan","capitalLatitude":40.38333333333333,"countryCode":"AZ","continentName":"Europe","capitalName":"Baku","capitalLongitude":49.866667},{"countryName":"Belarus","capitalLatitude":53.9,"countryCode":"BY","continentName":"Europe","capitalName":"Minsk","capitalLongitude":27.566667},{"countryName":"Belgium","capitalLatitude":50.833333333333336,"countryCode":"BE","continentName":"Europe","capitalName":"Brussels","capitalLongitude":4.333333},{"countryName":"Bosnia and Herzegovina","capitalLatitude":43.86666666666667,"countryCode":"BA","continentName":"Europe","capitalName":"Sarajevo","capitalLongitude":18.416667},{"countryName":"Bulgaria","capitalLatitude":42.68333333333333,"countryCode":"BG","continentName":"Europe","capitalName":"Sofia","capitalLongitude":23.316667},{"countryName":"Croatia","capitalLatitude":45.8,"countryCode":"HR","continentName":"Europe","capitalName":"Zagreb","capitalLongitude":16.0},{"countryName":"Cyprus","capitalLatitude":35.166666666666664,"countryCode":"CY","continentName":"Europe","capitalName":"Nicosia","capitalLongitude":33.366667},{"countryName":"Czech Republic","capitalLatitude":50.083333333333336,"countryCode":"CZ","continentName":"Europe","capitalName":"Prague","capitalLongitude":14.466667},{"countryName":"Denmark","capitalLatitude":55.666666666666664,"countryCode":"DK","continentName":"Europe","capitalName":"Copenhagen","capitalLongitude":12.583333},{"countryName":"Estonia","capitalLatitude":59.43333333333333,"countryCode":"EE","continentName":"Europe","capitalName":"Tallinn","capitalLongitude":24.716667},{"countryName":"Faroe Islands","capitalLatitude":62.0,"countryCode":"FO","continentName":"Europe","capitalName":"Torshavn","capitalLongitude":-6.766667},{"countryName":"Finland","capitalLatitude":60.166666666666664,"countryCode":"FI","continentName":"Europe","capitalName":"Helsinki","capitalLongitude":24.933333},{"countryName":"France","capitalLatitude":48.86666666666667,"countryCode":"FR","continentName":"Europe","capitalName":"Paris","capitalLongitude":2.333333},{"countryName":"Georgia","capitalLatitude":41.68333333333333,"countryCode":"GE","continentName":"Europe","capitalName":"Tbilisi","capitalLongitude":44.833333},{"countryName":"Germany","capitalLatitude":52.516666666666666,"countryCode":"DE","continentName":"Europe","capitalName":"Berlin","capitalLongitude":13.4},{"countryName":"Gibraltar","capitalLatitude":36.13333333333333,"countryCode":"GI","continentName":"Europe","capitalName":"Gibraltar","capitalLongitude":-5.35},{"countryName":"Greece","capitalLatitude":37.983333333333334,"countryCode":"GR","continentName":"Europe","capitalName":"Athens","capitalLongitude":23.733333},{"countryName":"Guernsey","capitalLatitude":49.45,"countryCode":"GG","continentName":"Europe","capitalName":"Saint Peter Port","capitalLongitude":-2.533333},{"countryName":"Vatican City","capitalLatitude":41.9,"countryCode":"VA","continentName":"Europe","capitalName":"Vatican City","capitalLongitude":12.45},{"countryName":"Hungary","capitalLatitude":47.5,"countryCode":"HU","continentName":"Europe","capitalName":"Budapest","capitalLongitude":19.083333},{"countryName":"Iceland","capitalLatitude":64.15,"countryCode":"IS","continentName":"Europe","capitalName":"Reykjavik","capitalLongitude":-21.95},{"countryName":"Ireland","capitalLatitude":53.31666666666667,"countryCode":"IE","continentName":"Europe","capitalName":"Dublin","capitalLongitude":-6.233333},{"countryName":"Isle of Man","capitalLatitude":54.15,"countryCode":"IM","continentName":"Europe","capitalName":"Douglas","capitalLongitude":-4.483333},{"countryName":"Italy","capitalLatitude":41.9,"countryCode":"IT","continentName":"Europe","capitalName":"Rome","capitalLongitude":12.483333},{"countryName":"Jersey","capitalLatitude":49.18333333333333,"countryCode":"JE","continentName":"Europe","capitalName":"Saint Helier","capitalLongitude":-2.1},{"countryName":"Latvia","capitalLatitude":56.95,"countryCode":"LV","continentName":"Europe","capitalName":"Riga","capitalLongitude":24.1},{"countryName":"Liechtenstein","capitalLatitude":47.13333333333333,"countryCode":"LI","continentName":"Europe","capitalName":"Vaduz","capitalLongitude":9.516667},{"countryName":"Lithuania","capitalLatitude":54.68333333333333,"countryCode":"LT","continentName":"Europe","capitalName":"Vilnius","capitalLongitude":25.316667},{"countryName":"Luxembourg","capitalLatitude":49.6,"countryCode":"LU","continentName":"Europe","capitalName":"Luxembourg","capitalLongitude":6.116667},{"countryName":"Macedonia","capitalLatitude":42.0,"countryCode":"MK","continentName":"Europe","capitalName":"Skopje","capitalLongitude":21.433333},{"countryName":"Malta","capitalLatitude":35.88333333333333,"countryCode":"MT","continentName":"Europe","capitalName":"Valletta","capitalLongitude":14.5},{"countryName":"Moldova","capitalLatitude":47.0,"countryCode":"MD","continentName":"Europe","capitalName":"Chisinau","capitalLongitude":28.85},{"countryName":"Monaco","capitalLatitude":43.733333333333334,"countryCode":"MC","continentName":"Europe","capitalName":"Monaco","capitalLongitude":7.416667},{"countryName":"Montenegro","capitalLatitude":42.43333333333333,"countryCode":"ME","continentName":"Europe","capitalName":"Podgorica","capitalLongitude":19.266667},{"countryName":"Netherlands","capitalLatitude":52.35,"countryCode":"NL","continentName":"Europe","capitalName":"Amsterdam","capitalLongitude":4.916667},{"countryName":"Norway","capitalLatitude":59.916666666666664,"countryCode":"NO","continentName":"Europe","capitalName":"Oslo","capitalLongitude":10.75},{"countryName":"Poland","capitalLatitude":52.25,"countryCode":"PL","continentName":"Europe","capitalName":"Warsaw","capitalLongitude":21.0},{"countryName":"Portugal","capitalLatitude":38.71666666666667,"countryCode":"PT","continentName":"Europe","capitalName":"Lisbon","capitalLongitude":-9.133333},{"countryName":"Romania","capitalLatitude":44.43333333333333,"countryCode":"RO","continentName":"Europe","capitalName":"Bucharest","capitalLongitude":26.1},{"countryName":"Russia","capitalLatitude":55.75,"countryCode":"RU","continentName":"Europe","capitalName":"Moscow","capitalLongitude":37.6},{"countryName":"San Marino","capitalLatitude":43.93333333333333,"countryCode":"SM","continentName":"Europe","capitalName":"San Marino","capitalLongitude":12.416667},{"countryName":"Serbia","capitalLatitude":44.833333333333336,"countryCode":"RS","continentName":"Europe","capitalName":"Belgrade","capitalLongitude":20.5},{"countryName":"Slovakia","capitalLatitude":48.15,"countryCode":"SK","continentName":"Europe","capitalName":"Bratislava","capitalLongitude":17.116667},{"countryName":"Slovenia","capitalLatitude":46.05,"countryCode":"SI","continentName":"Europe","capitalName":"Ljubljana","capitalLongitude":14.516667},{"countryName":"Spain","capitalLatitude":40.4,"countryCode":"ES","continentName":"Europe","capitalName":"Madrid","capitalLongitude":-3.683333},{"countryName":"Svalbard","capitalLatitude":78.21666666666667,"countryCode":"SJ","continentName":"Europe","capitalName":"Longyearbyen","capitalLongitude":15.633333},{"countryName":"Sweden","capitalLatitude":59.333333333333336,"countryCode":"SE","continentName":"Europe","capitalName":"Stockholm","capitalLongitude":18.05},{"countryName":"Switzerland","capitalLatitude":46.916666666666664,"countryCode":"CH","continentName":"Europe","capitalName":"Bern","capitalLongitude":7.466667},{"countryName":"Turkey","capitalLatitude":39.93333333333333,"countryCode":"TR","continentName":"Europe","capitalName":"Ankara","capitalLongitude":32.866667},{"countryName":"Ukraine","capitalLatitude":50.43333333333333,"countryCode":"UA","continentName":"Europe","capitalName":"Kyiv","capitalLongitude":30.516667},{"countryName":"United Kingdom","capitalLatitude":51.5,"countryCode":"GB","continentName":"Europe","capitalName":"London","capitalLongitude":-0.083333},{"countryName":"Northern Cyprus","capitalLatitude":35.183333,"countryCode":"NULL","continentName":"Europe","capitalName":"North Nicosia","capitalLongitude":33.366667}]