[{"countryName":"Argentina","capitalLatitude":-34.583333333333336,"countryCode":"AR","continentName":"South America","capitalName":"Buenos Aires","capitalLongitude":-58.666667},{"countryName":"Bolivia","capitalLatitude":-16.5,"countryCode":"BO","continentName":"South America","capitalName":"La Paz","capitalLongitude":-68.15},{"countryName":"Brazil","capitalLatitude":-15.783333333333333,"countryCode":"BR","continentName":"South America","capitalName":"Brasilia","capitalLongitude":-47.916667},{"countryName":"Chile","capitalLatitude":-33.45,"countryCode":"CL","continentName":"South America","capitalName":"Santiago","capitalLongitude":-70.666667},{"countryName":"Colombia","capitalLatitude":4.6,"countryCode":"CO","continentName":"South America","capitalName":"Bogota","capitalLongitude":-74.083333},{"countryName":"Ecuador","capitalLatitude":-0.21666666666666667,"countryCode":"EC","continentName":"South America","capitalName":"Quito","capitalLongitude":-78.5},{"countryName":"Falkland Islands","capitalLatitude":-51.7,"countryCode":"FK","continentName":"South America","capitalName":"Stanley","capitalLongitude":-57.85},{"countryName":"Guyana","capitalLatitude":6.8,"countryCode":"GY","continentName":"South America","capitalName":"Georgetown","capitalLongitude":-58.15},{"countryName":"Paraguay","capitalLatitude":-25.266666666666666,"countryCode":"PY","continentName":"South America","capitalName":"Asuncion","capitalLongitude":-57.666667},{"countryName":"Peru","capitalLatitude":-12.05,"countryCode":"PE","continentName":"South America","capitalName":"Lima","capitalLongitude":-77.05},{"countryName":"Suriname","capitalLatitude":5.833333333333333,"countryCode":"SR","continentName":"South America","capitalName":"Paramaribo","capitalLongitude":-55.166667},{"countryName":"Uruguay","capitalLatitude":-34.85,"countryCode":"UY","continentName":"South America","capitalName":"Montevideo","capitalLongitude":-56.166667},{"countryName":"Venezuela","capitalLatitude":10.483333333333333,"countryCode":"VE","continentName":"South America","capitalName":"Caracas","capitalLongitude":-66.866667}]